[
  {"updated_datetime": "2016-06-24T18:27:26-05:00", "status": "open", "long": -87.66041265097998, "service_code": "4ffa971e6018277d4000000b", "address": "745 N THROOP ST, CHICAGO, IL 60642", "lat": 41.895295381231065, "service_name": "Pavement Cave-In Survey", "requested_datetime": "2016-06-24T18:19:28-05:00", "agency_responsible": "DIM, Public Way Management - CDOT", "service_request_id": "16-04424334"},
  {"updated_datetime": "2016-06-24T17:49:24-05:00", "status": "open", "long": -87.75750880434431, "service_code": "4ffa971e6018277d4000000b", "address": "6326 N LE MAI AVE, CHICAGO, IL 60646", "lat": 41.99606415643423, "service_name": "Pavement Cave-In Survey", "requested_datetime": "2016-06-24T17:38:51-05:00", "agency_responsible": "DIM, Public Way Management - CDOT", "service_request_id": "16-04423599"},
  {"updated_datetime": "2016-06-24T17:12:38-05:00", "status": "closed", "long": -87.79054017311034, "status_notes": "No Pavement Cave-In Issue Found at Location", "service_code": "4ffa971e6018277d4000000b", "address": "6555 W BELMONT AVE, CHICAGO, IL 60634", "lat": 41.93824274642761, "service_name": "Pavement Cave-In Survey", "requested_datetime": "2016-06-23T08:45:49-05:00", "agency_responsible": "DIM, Public Way Management - CDOT", "service_request_id": "16-04377702"},
  {"updated_datetime": "2016-06-24T16:44:59-05:00", "status": "open", "long": -87.6212616976311, "service_code": "4ffa971e6018277d4000000b", "address": "8148 S MICHIGAN AVE, CHICAGO, IL 60619", "lat": 41.74647041778621, "service_name": "Pavement Cave-In Survey", "requested_datetime": "2016-06-24T16:37:18-05:00", "agency_responsible": "DIM, Public Way Management - CDOT", "service_request_id": "16-04421773"},
  {"updated_datetime": "2016-06-24T16:35:36-05:00", "status": "closed", "long": -87.72099692878722, "status_notes": "WM Sewer Cave In Inspection Transfer Outcome", "service_code": "4ffa971e6018277d4000000b", "address": "3941 W 63RD PL, CHICAGO, IL 60629", "lat": 41.77775824020036, "service_name": "Pavement Cave-In Survey", "requested_datetime": "2016-06-24T13:30:55-05:00", "agency_responsible": "DIM, Public Way Management - CDOT", "service_request_id": "16-04416940"}
]
